,City,Cloudiness,Country,Date,Humidity,Lat,Lng,Max Temp,Wind Speed
0,Los Llanos de Aridane,65,ES,1595120687,69,28.66,-17.92,82.0,8.05
1,Punta Arenas,99,CL,1595120689,80,-53.15,-70.92,35.01,13.87
2,Sitka,90,US,1595120690,93,57.05,-135.33,57.2,9.17
3,Kruisfontein,0,ZA,1595120691,79,-34.0,24.73,50.67,5.77
4,Bonavista,100,CA,1595120692,67,48.65,-53.11,54.45,4.79
5,Saint-Philippe,75,RE,1595120694,68,-21.36,55.77,66.2,11.41
6,Rikitea,48,PF,1595120695,84,-23.12,-134.97,69.93,14.56
7,Vaini,75,TO,1595120696,88,-21.2,-175.2,78.8,14.99
8,Cape Town,0,ZA,1595120687,100,-33.93,18.42,54.0,5.82
9,Marawi,0,PH,1595120699,78,8.0,124.29,82.99,3.0
10,College,75,US,1595120700,68,64.86,-147.8,66.2,9.17
11,Srednekolymsk,0,RU,1595120701,49,67.45,153.68,65.82,6.26
12,Tiksi,100,RU,1595120631,99,71.69,128.87,50.49,8.86
13,Coachella,1,US,1595120703,8,33.68,-116.17,113.0,5.82
14,Dwārka,0,IN,1595120705,81,22.24,68.97,84.58,17.78
15,Fortuna,1,US,1595120575,72,40.6,-124.16,68.0,13.87
16,Airai,0,TL,1595120707,40,-8.93,125.41,69.39,3.15
17,Tabatinga,40,BR,1595120708,100,-4.25,-69.94,77.0,2.24
18,Sechura,6,PE,1595120579,80,-5.56,-80.82,63.36,15.03
19,Kapaa,1,US,1595120492,74,22.08,-159.32,84.2,11.41
20,Puerto Ayora,66,EC,1595120599,93,-0.74,-90.35,69.01,1.99
21,Bluff,3,NZ,1595120713,83,-46.6,168.33,39.0,3.0
22,Saint George,1,US,1595120667,8,37.1,-113.58,105.8,10.29
23,Kavieng,71,PG,1595120715,74,-2.57,150.8,83.08,6.78
24,Mataura,0,NZ,1595120717,83,-46.19,168.86,39.0,3.0
25,Copiapó,31,CL,1595120718,87,-27.37,-70.33,50.0,6.93
26,Mossamedes,2,AO,1595120719,78,-15.2,12.15,64.85,2.1
27,Port Hedland,75,AU,1595120720,88,-20.32,118.57,62.6,14.99
28,Lamar,1,US,1595120721,52,33.67,-95.58,91.4,10.29
29,Port Elizabeth,0,ZA,1595120532,76,-33.92,25.57,57.2,13.87
30,Qaanaaq,97,GL,1595120724,70,77.48,-69.36,48.51,0.56
31,Brisbane,20,AU,1595120531,49,-27.47,153.03,70.0,10.29
32,Ambilobe,71,MG,1595120726,64,-13.2,49.05,61.18,3.85
33,São Filipe,32,CV,1595120727,76,14.9,-24.5,76.48,6.71
34,Ushuaia,75,AR,1595120729,94,-54.8,-68.3,32.0,5.82
35,Jamestown,1,US,1595120730,65,42.1,-79.24,78.8,3.36
36,Cherskiy,0,RU,1595120731,52,68.75,161.3,68.41,6.8
37,Busselton,100,AU,1595120732,98,-33.65,115.33,51.01,3.98
38,Saint-Augustin,69,CA,1595120734,78,51.23,-58.65,60.76,9.98
39,Malkāpur,100,IN,1595120735,84,20.88,76.2,79.29,9.66
40,Santa Fe,0,AR,1595120736,62,-31.63,-60.7,73.99,1.99
41,Salalah,90,OM,1595120738,94,17.02,54.09,80.6,13.87
42,Abhā,100,SA,1595120739,42,18.22,42.51,71.6,8.46
43,Düzce,75,TR,1595120740,73,40.84,31.16,70.2,2.06
44,Berlevåg,26,NO,1595120741,80,70.86,29.09,52.14,6.38
45,Adrar,0,MR,1595120743,20,20.5,-10.07,94.05,4.99
46,Buluang,100,PH,1595120744,73,13.31,123.34,84.56,2.1
47,Vicksburg,1,US,1595120476,62,32.35,-90.88,89.6,5.82
48,Kīhei,40,US,1595120746,49,20.79,-156.47,91.4,25.28
49,Nicoya,40,CR,1595120748,66,10.15,-85.45,84.2,9.17
50,Troitskoye,0,RU,1595120749,75,52.98,84.68,62.74,9.57
51,Kaitangata,0,NZ,1595120750,63,-46.28,169.85,48.0,5.01
52,Shanhecun,100,CN,1595120706,55,44.7,127.2,80.85,3.96
53,Keffi,20,NG,1595120753,88,8.85,7.87,75.2,2.24
54,Kahului,40,US,1595120754,49,20.89,-156.47,91.4,25.28
55,Butaritari,4,KI,1595120756,77,3.07,172.79,82.53,14.0
56,Quatre Cocos,40,MU,1595120757,77,-20.21,57.76,68.0,12.75
57,Ribeira Grande,10,PT,1595120474,79,38.52,-28.7,69.15,10.83
58,Honningsvåg,63,NO,1595120760,77,70.98,25.97,52.18,5.59
59,Hilo,90,US,1595120684,66,19.73,-155.09,84.2,8.05
60,Saskylakh,62,RU,1595120498,63,71.92,114.08,51.04,10.4
61,Rogoźno,0,PL,1595120764,77,52.75,16.99,64.4,2.24
62,Ambulu,1,ID,1595120765,75,-8.35,113.61,78.84,2.62
63,Escanaba,1,US,1595120748,78,45.75,-87.06,80.6,12.75
64,Carnarvon,0,AU,1595120768,87,-24.87,113.63,51.8,13.87
65,Hashtrūd,0,IR,1595120769,53,37.48,47.05,68.68,2.48
66,Sumbe,0,AO,1595120646,81,-11.21,13.84,68.47,7.25
67,Esperance,75,AU,1595120554,100,-33.87,121.9,51.8,10.29
68,Wuchang,100,CN,1595120772,58,44.91,127.15,80.02,3.06
69,Pakhtakoron,0,TJ,1595120774,33,40.16,68.75,78.6,1.05
70,Baykit,0,RU,1595120775,56,61.67,96.37,56.23,6.55
71,Zhalantun,94,CN,1595120777,71,48.0,122.72,72.25,15.08
72,Half Moon Bay,5,US,1595120778,50,37.46,-122.43,81.0,11.41
73,Albany,65,US,1595120779,63,42.6,-73.97,82.0,3.85
74,Corsicana,75,US,1595120780,59,32.1,-96.47,89.6,9.17
75,Jalu,0,LY,1595120781,47,29.03,21.55,76.91,8.68
76,Ajra,75,IN,1595120783,100,16.12,74.2,69.8,4.7
77,Hermanus,19,ZA,1595120784,93,-34.42,19.23,51.01,1.01
78,Spassk-Dal'niy,1,RU,1595120786,63,44.6,132.82,75.18,5.57
79,Soe,1,ID,1595120787,47,-9.86,124.28,73.92,5.53
80,Atuona,77,PF,1595120788,79,-9.8,-139.03,79.03,16.24
81,Geraldton,40,AU,1595120790,87,-28.77,114.6,51.8,8.05
82,Arraial do Cabo,0,BR,1595120791,76,-22.97,-42.03,70.54,17.85
83,Granada,0,ES,1595120658,57,37.19,-3.61,77.0,4.7
84,Dikson,100,RU,1595120793,95,73.51,80.55,39.61,5.44
85,Upernavik,1,GL,1595120795,56,72.79,-56.15,48.0,5.57
86,Nikolskoye,100,RU,1595120559,76,59.7,30.79,57.99,4.47
87,Avarua,87,CK,1595120584,69,-21.21,-159.78,75.2,18.34
88,La Primavera,93,CO,1595120798,81,5.49,-70.41,78.01,1.92
89,Bambous Virieux,40,MU,1595120800,77,-20.34,57.76,68.0,12.75
90,Hasaki,75,JP,1595120801,94,35.73,140.83,77.0,6.93
91,Sioux Lookout,75,CA,1595120802,47,50.1,-91.92,80.6,11.41
92,Guerrero Negro,0,MX,1595120590,63,27.98,-114.06,74.26,19.17
93,Guilin,75,CN,1595120661,74,25.28,110.29,84.2,17.9
94,Yellowknife,20,CA,1595120806,43,62.46,-114.35,72.0,9.17
95,Buala,50,SB,1595120807,67,-8.14,159.59,84.79,7.67
96,Dubrovka,0,RU,1595120808,88,53.69,33.51,52.93,4.56
97,Hobart,20,AU,1595120726,62,-42.88,147.33,55.99,6.93
98,NEDJO,100,ET,1595120810,100,9.5,35.5,56.62,3.15
99,Provideniya,23,RU,1595120639,65,64.38,-173.3,49.1,5.39
100,Nemuro,75,JP,1595120557,82,43.32,145.57,66.2,2.24
101,Miyako,94,JP,1595120814,88,39.64,141.95,71.58,5.73
102,Yumen,92,CN,1595120532,19,40.28,97.2,76.15,5.68
103,Bereda,55,ES,1595120817,100,43.27,-7.54,62.01,1.01
104,Fukuechō,75,JP,1595120818,100,32.69,128.84,78.8,8.05
105,Castro,0,BR,1595120807,90,-24.79,-50.01,58.14,3.96
106,Petropavlovka,18,RU,1595120820,59,50.61,105.32,57.25,5.32
107,Kamenka,0,RU,1595120821,95,51.32,42.77,57.0,4.16
108,Nuevo Progreso,100,MX,1595120823,60,23.17,-97.95,84.99,1.99
109,Zyryanka,0,RU,1595120824,39,65.75,150.85,67.8,7.72
110,Namatanai,36,PG,1595120825,69,-3.67,152.43,84.49,5.39
111,Tuktoyaktuk,90,CA,1595120586,93,69.45,-133.04,42.8,11.41
112,Katsuura,75,JP,1595120828,94,35.13,140.3,77.0,10.29
113,Yayva,100,RU,1595120829,94,59.33,57.26,55.0,3.83
114,Tasiilaq,36,GL,1595120830,75,65.61,-37.64,44.6,4.7
115,Port Alfred,0,ZA,1595120831,76,-33.59,26.89,59.65,10.49
116,Bengkulu,100,ID,1595120832,82,-3.8,102.27,77.47,3.85
117,Salinópolis,93,BR,1595120834,85,-0.61,-47.36,78.06,11.1
118,Klaksvík,81,FO,1595120835,87,62.23,-6.59,48.2,9.17
119,Hong Kong,100,HK,1595120545,70,22.29,114.16,88.0,11.01
120,Iqaluit,75,CA,1595120838,93,63.75,-68.51,50.0,2.24
121,Great Yarmouth,100,GB,1595120839,97,52.61,1.73,64.0,3.78
122,Hamilton,20,US,1595120840,55,39.18,-84.53,88.0,10.29
123,Clarence Town,0,AU,1595120841,82,-32.58,151.78,60.01,10.29
124,Lovington,1,US,1595120843,19,32.94,-103.35,95.0,13.87
125,Rio Verde de Mato Grosso,0,BR,1595120844,37,-18.92,-54.84,73.11,5.17
126,Praia,75,CV,1595120845,73,14.92,-23.51,77.0,6.93
127,Mahébourg,40,MU,1595120846,77,-20.41,57.7,68.0,12.75
128,Williams Lake,75,CA,1595120819,72,52.14,-122.14,64.4,5.82
129,Hithadhoo,100,MV,1595120849,71,-0.6,73.08,83.44,19.86
130,Te Anau,0,NZ,1595120850,55,-45.42,167.72,48.16,0.85
131,Severo-Kuril'sk,79,RU,1595120851,83,50.68,156.12,54.23,12.86
132,Poum,8,NC,1595120853,62,-20.23,164.02,71.51,12.35
133,Olafsvik,6,IS,1595120854,81,64.89,-23.71,46.58,11.41
134,Kloulklubed,75,PW,1595120855,74,7.04,134.26,84.2,4.7
135,Sangar,100,RU,1595120856,66,63.92,127.47,68.79,4.99
136,Bend,1,US,1595120781,8,44.06,-121.32,87.8,6.93
137,Muravlenko,91,RU,1595120859,86,63.79,74.52,65.32,6.33
138,Kutum,7,SD,1595120860,64,14.2,24.67,74.7,6.38
139,Makueni Boma,84,KE,1595120861,80,-1.8,37.62,57.51,1.1
140,Kenai,90,US,1595120863,77,60.55,-151.26,62.01,12.75
141,Cockburn Town,0,TC,1595120864,77,21.46,-71.14,83.75,17.36
142,Mildura,0,AU,1595120865,58,-34.2,142.15,57.99,10.29
143,Coyhaique,90,CL,1595120867,92,-45.58,-72.07,32.0,3.36
144,Koshurnikovo,0,RU,1595120868,66,54.17,93.3,57.42,2.08
145,Rio Grande,2,BR,1595120719,80,-32.03,-52.1,70.0,1.01
146,Narsaq,100,GL,1595120870,50,60.92,-46.05,53.6,5.82
147,Ukiah,1,US,1595120837,22,39.15,-123.21,98.6,9.17
148,Carbondale,1,US,1595120873,74,37.73,-89.22,84.99,6.93
149,Mount Gambier,75,AU,1595120874,93,-37.83,140.77,50.0,16.11
150,Urengoy,100,RU,1595120876,84,65.97,78.37,51.91,8.39
151,Port Hawkesbury,20,CA,1595120772,87,45.62,-61.35,62.01,2.24
152,Haines Junction,45,CA,1595120878,44,60.75,-137.51,67.46,9.08
153,Pontian Kecil,20,MY,1595120879,94,1.48,103.39,78.01,2.44
154,Evensk,100,RU,1595120880,82,61.95,159.23,53.22,9.86
155,Portland,1,US,1595120788,37,45.52,-122.68,84.2,13.87
156,Sabinas,69,MX,1595120883,43,27.85,-101.12,88.99,12.41
157,East London,0,ZA,1595120884,53,-33.02,27.91,61.99,9.24
158,Puerto del Rosario,0,ES,1595120886,39,28.5,-13.86,84.2,13.87
159,Nome,1,US,1595120887,66,64.5,-165.41,62.01,23.04
160,Haining,100,CN,1595120888,66,30.54,120.69,91.0,4.47
161,Saldanha,0,ZA,1595120889,87,-33.01,17.94,48.2,2.24
162,Saint Paul Harbor,90,US,1595120891,68,57.79,-152.41,64.4,9.17
163,Lodwar,100,KE,1595120892,54,3.12,35.6,79.93,4.03
164,Pevek,2,RU,1595120893,66,69.7,170.31,45.72,5.21
165,Husavik,75,IS,1595120894,81,66.04,-17.34,42.8,14.99
166,Chihuahua,75,MX,1595120895,20,28.5,-106.0,95.0,13.87
167,Itarema,4,BR,1595120896,78,-2.92,-39.92,77.99,13.58
168,San Cristobal,82,VE,1595120675,92,7.77,-72.22,66.13,2.55
169,Muros,0,ES,1595120899,74,42.78,-9.06,66.99,2.75
170,Valparaíso,90,CL,1595120900,93,-33.04,-71.63,53.6,5.82
171,Morón,90,AR,1595120902,100,-34.65,-58.62,59.0,5.82
172,Faanui,100,PF,1595120903,83,-16.48,-151.75,75.43,22.17
173,Taganak,20,PH,1595120904,83,6.08,118.3,82.4,4.7
174,Saint Anthony,90,US,1595120752,66,45.02,-93.22,89.6,9.17
175,Mayo,1,US,1595120906,58,38.89,-76.51,86.0,2.48
176,Coquimbo,90,CL,1595120908,87,-29.95,-71.34,53.6,2.24
177,Champerico,7,GT,1595120909,71,14.3,-91.92,82.89,2.3
178,Ostrovnoy,1,RU,1595120910,61,68.05,39.51,58.91,16.13
179,San Luis,32,AR,1595120911,57,-33.3,-66.34,55.09,9.31
180,Bud,1,US,1595120912,58,39.45,-86.18,86.0,5.82
181,Rovaniemi,90,FI,1595120914,87,66.5,25.72,60.8,9.17
182,Clyde River,90,CA,1595120915,93,70.47,-68.59,42.8,12.75
183,Key West,20,US,1595120682,70,24.56,-81.78,84.2,9.17
184,Alta Floresta,0,BR,1595120917,47,-9.88,-56.09,76.39,4.05
185,Guiglo,13,CI,1595120919,98,6.55,-7.5,68.88,2.48
186,Ewo,16,CG,1595120920,83,-0.87,14.82,72.93,2.33
187,Sambava,5,MG,1595120921,76,-14.27,50.17,67.55,13.27
188,Khatanga,100,RU,1595120922,72,71.97,102.5,49.5,5.77
189,Padang,75,ID,1595120924,88,-0.95,100.35,77.0,4.7
190,Chagoda,100,RU,1595120925,70,59.16,35.33,51.73,2.13
191,Saint-François,21,FR,1595120926,87,46.42,3.91,57.2,2.24
192,Mount Isa,0,AU,1595120927,15,-20.73,139.5,73.4,4.7
193,Norman Wells,75,CA,1595120929,52,65.28,-126.83,69.8,6.93
194,Camacha,40,PT,1595120930,83,33.08,-16.33,69.8,6.93
195,Līsakovsk,39,KZ,1595120931,70,52.54,62.49,73.74,7.09
196,New Norfolk,5,AU,1595120933,75,-42.78,147.06,55.99,4.0
197,Codrington,100,AU,1595120934,91,-38.27,141.97,50.25,17.43
198,Mezen',15,RU,1595120935,83,65.85,44.24,49.37,2.37
199,Tunceli,0,TR,1595120852,42,39.11,39.55,68.0,6.93
200,Asău,85,RO,1595120938,82,46.43,26.4,66.2,3.36
201,Lebu,100,CL,1595120939,89,-37.62,-73.65,53.2,14.43
202,Souillac,40,MU,1595120941,77,-20.52,57.52,68.0,12.75
203,Verkhoyansk,84,RU,1595120942,65,67.54,133.38,69.08,2.66
204,São João da Barra,0,BR,1595120704,74,-21.64,-41.05,69.15,7.47
205,Cayenne,70,GF,1595120776,100,4.93,-52.33,77.0,10.98
206,Le Port,75,RE,1595120946,68,-20.94,55.29,64.4,6.93
207,Brønnøysund,100,NO,1595120947,87,65.46,12.2,55.4,4.7
208,Bethel,1,US,1595120948,78,41.37,-73.41,75.0,4.7
209,Goya,0,AR,1595120950,58,-29.14,-59.26,72.5,9.78
210,Yangi Marg`ilon,0,UZ,1595120951,38,40.43,71.72,75.2,9.17
211,Kokkola,20,FI,1595120952,93,63.84,23.13,62.01,10.29
212,Bānapur,100,IN,1595120953,83,19.78,85.18,82.76,7.07
213,Lota,90,CL,1595120955,87,-37.08,-73.17,55.4,9.17
214,Nouadhibou,90,MR,1595120956,88,20.93,-17.03,71.6,16.11
215,Abadan,0,TM,1595120958,28,38.05,58.21,86.0,6.93
216,San Rafael,10,AR,1595120959,52,-34.62,-68.33,52.79,1.01
217,Bredasdorp,45,ZA,1595120960,93,-34.53,20.04,53.6,3.36
218,Chimbote,80,PE,1595120961,84,-9.09,-78.58,60.76,9.8
219,Vila Franca do Campo,20,PT,1595120860,82,37.72,-25.43,66.2,5.82
220,Malbork,0,PL,1595120964,93,54.04,19.03,64.0,1.12
221,Contamana,28,PE,1595120966,69,-7.33,-75.02,77.31,1.5
222,Barrow,90,US,1595120773,74,71.29,-156.79,37.4,12.75
223,Çermik,0,TR,1595120968,42,38.14,39.45,68.0,6.93
224,Basco,98,PH,1595120969,81,20.45,121.97,84.63,15.95
225,Hoopstad,0,ZA,1595120970,53,-27.83,25.91,40.71,3.31
226,Roebourne,0,AU,1595120972,67,-20.78,117.13,66.99,7.56
227,Vestmanna,100,FO,1595120973,87,62.16,-7.17,48.2,9.17
228,Maniitsoq,74,GL,1595120975,71,65.42,-52.9,49.77,10.65
229,Harper,5,LR,1595120977,89,4.38,-7.72,75.4,6.29
230,Dakar,75,SN,1595120947,88,14.69,-17.44,80.6,11.41
231,Province of Mantua,0,IT,1595120980,72,45.17,10.78,64.99,5.01
232,Yei,100,SS,1595120981,93,4.09,30.68,64.45,3.0
233,Hīrna,100,ET,1595120982,90,9.22,41.1,58.8,3.0
234,Sola,90,VU,1595120983,88,-13.88,167.55,82.4,4.65
235,Killarney,9,IE,1595120985,89,52.05,-9.52,46.47,2.66
236,Bakchar,98,RU,1595120987,69,57.02,82.07,64.45,2.37
237,Gushikawa,40,JP,1595120988,74,26.35,127.87,86.0,14.99
238,Jacareacanga,2,BR,1595120803,66,-6.22,-57.75,77.36,1.45
239,Roald,2,NO,1595120990,67,62.58,6.13,57.2,9.17
240,Chui,18,UY,1595120992,93,-33.7,-53.46,63.28,6.22
241,Benalla,88,AU,1595120993,87,-36.55,145.98,53.01,3.36
242,Diego de Almagro,86,CL,1595120994,68,-26.37,-70.05,47.84,1.9
243,Ponta do Sol,32,PT,1595120995,79,32.67,-17.1,71.01,1.5
244,Mar del Plata,90,AR,1595120997,100,-38.0,-57.56,51.01,3.85
245,Zuya,6,UA,1595120998,90,45.05,34.32,63.79,6.26
246,Tuatapere,0,NZ,1595120989,83,-46.13,167.68,39.0,3.0
247,Kalispell,1,US,1595120939,28,48.2,-114.31,81.0,6.93
248,Ucar,0,AZ,1595121002,56,40.52,47.65,77.07,1.52
249,Ormara,0,PK,1595121004,83,25.21,64.64,86.63,9.53
250,Tabuk,96,PH,1595120841,73,17.42,121.44,82.67,5.79
251,Dunedin,0,NZ,1595120875,67,-45.87,170.5,55.0,5.01
252,Lishu,100,CN,1595121008,77,43.3,124.33,71.17,2.57
253,Ārvi,100,IN,1595120824,79,20.98,78.23,81.52,4.74
254,Kirovskiy,1,RU,1595121010,68,45.09,133.51,76.17,3.04
255,La Santisima Trinidad,0,BO,1595120774,62,-14.83,-64.9,75.81,2.55
256,Inhambane,26,MZ,1595121013,77,-23.86,35.38,63.79,3.47
257,Marystown,100,CA,1595121014,73,47.17,-55.15,57.29,10.92
258,Amur Oblast,0,RU,1595121015,53,54.0,128.0,79.32,11.72
259,Caravelas,76,BR,1595120773,78,-17.71,-39.25,70.47,8.41
260,George Town,20,MY,1595121018,94,5.41,100.34,80.6,4.81
261,Cartagena,53,CO,1595121019,84,10.4,-75.51,81.25,14.74
262,Eyl,93,SO,1595121020,61,7.98,49.82,78.71,30.96
263,Quelimane,75,MZ,1595121022,93,-17.88,36.89,66.2,2.24
264,Dandong,100,CN,1595121023,94,40.13,124.39,69.04,8.1
265,Sorochinsk,99,RU,1595121024,91,52.43,53.16,67.6,12.28
266,Ketchikan,90,US,1595121025,93,55.34,-131.65,59.0,9.17
267,Verkhniye Kigi,32,RU,1595121027,80,55.41,58.6,67.35,3.18
268,Upata,100,VE,1595121028,93,8.01,-62.4,78.01,4.0
269,Wanning,12,CN,1595121029,71,18.8,110.4,86.07,14.38
270,San Vicente,0,AR,1595121031,79,-26.62,-54.13,66.11,6.13
271,São Félix do Xingu,0,BR,1595121032,61,-6.64,-51.99,72.64,1.81
272,Xuanzhou,100,CN,1595121034,77,30.95,118.76,86.34,8.77
273,Dubbo,0,AU,1595120740,71,-32.25,148.62,53.6,4.7
274,Jiuquan,4,CN,1595121036,17,39.74,98.52,79.2,0.83
275,Santa Isabel Rio Negro,79,BR,1595121038,95,-0.41,-65.02,73.83,1.21
276,Isla Mujeres,75,MX,1595121039,79,21.23,-86.73,84.2,4.7
277,Kaka,0,TM,1595121040,20,37.35,59.61,82.26,6.17
278,Mazagão,40,BR,1595121041,78,-0.12,-51.29,82.4,9.17
279,Pangnirtung,20,CA,1595121043,63,66.15,-65.71,54.55,1.36
280,Longyearbyen,75,SJ,1595120880,87,78.22,15.64,44.6,3.36
281,Richards Bay,0,ZA,1595121045,45,-28.78,32.04,56.23,5.21
282,Kroya,43,ID,1595121047,76,-7.63,109.25,77.41,4.05
283,Oranjemund,0,NA,1595121049,34,-28.55,16.43,60.35,5.57
284,Benguela,0,AO,1595121050,82,-12.58,13.41,66.0,2.8
285,Sur,78,OM,1595121051,80,22.57,59.53,85.12,12.91
286,Igrim,5,RU,1595121052,89,63.19,64.42,64.65,4.27
287,Huarmey,20,PE,1595121054,84,-10.07,-78.15,60.24,8.1
288,Turukhansk,0,RU,1595121055,66,65.82,87.98,53.78,2.95
289,Bytów,0,PL,1595121056,85,54.17,17.49,63.0,4.41
290,Moose Factory,75,CA,1595121058,57,51.26,-80.61,78.8,9.17
291,Puro,100,PH,1595121059,70,12.48,123.38,85.05,12.19
292,Chokurdakh,0,RU,1595121060,36,70.63,147.92,62.58,12.75
293,Bumba,96,CD,1595121062,92,2.18,22.47,70.18,1.74
294,Thompson,75,CA,1595121064,46,55.74,-97.86,69.8,9.17
295,Manaure,0,CO,1595121065,72,11.78,-72.44,82.81,18.57
296,Metro,59,ID,1595121066,86,-5.11,105.31,78.22,3.33
297,Blythe,75,US,1595120980,11,33.61,-114.6,111.2,13.87
298,Inverell,0,AU,1595121068,50,-29.78,151.12,57.99,3.0
299,Erenhot,0,CN,1595121070,35,43.65,111.98,69.21,5.97
300,Belmonte,75,BR,1595120986,78,-15.86,-38.88,71.6,4.7
301,Eydhafushi,100,MV,1595121072,74,5.1,73.07,83.48,19.66
302,Vardø,100,NO,1595121073,88,70.37,31.11,50.81,4.5
303,Aleksandrovskiy Zavod,100,RU,1595121075,90,50.92,117.94,59.76,2.59
304,Solone,85,UA,1595121076,77,48.21,34.87,64.99,2.24
305,Omboué,29,GA,1595121077,90,-1.57,9.26,71.44,5.37
306,Deputatsky,100,RU,1595121079,46,69.3,139.9,59.16,12.62
307,Maceió,75,BR,1595120790,94,-9.67,-35.74,71.6,3.36
308,Mersing,20,MY,1595121034,100,2.43,103.84,73.4,4.7
309,Tricase,5,IT,1595121082,93,39.93,18.36,66.99,4.7
310,La Libertad,90,EC,1595121079,94,-2.23,-80.9,69.8,11.41
311,Yārāda,40,IN,1595121085,88,17.65,83.27,80.6,3.36
312,Dauphin,20,CA,1595121086,93,51.15,-100.05,62.6,5.82
313,Nanaimo,20,CA,1595120941,39,49.17,-123.94,82.4,9.17
314,Tiznit Province,0,MA,1595121089,29,29.58,-9.5,80.37,0.78
315,Al Bardīyah,0,LY,1595121090,85,31.76,25.09,72.34,12.1
316,Longyan,18,CN,1595121091,63,25.11,117.02,84.4,5.26
317,Kieta,26,PG,1595121093,66,-6.22,155.63,84.27,4.05
318,Hailar,30,CN,1595121094,70,49.2,119.7,62.92,13.96
319,Acarí,35,PE,1595121096,66,-15.43,-74.62,60.42,3.36
320,Riberalta,0,BO,1595121097,51,-10.98,-66.1,76.95,1.14
321,Lüderitz,0,NA,1595121098,23,-26.65,15.16,64.4,4.7
322,Constitución,96,CL,1595121100,85,-35.33,-72.42,55.31,11.12
323,Talnakh,72,RU,1595121101,87,69.49,88.4,51.8,8.95
324,Haikou,79,CN,1595121102,74,20.05,110.34,84.2,8.95
325,Alyangula,0,AU,1595121104,78,-13.85,136.42,75.2,1.12
326,Natal,20,BR,1595121105,94,-5.79,-35.21,71.6,8.05
327,Lata,0,PT,1595121106,78,40.16,-8.33,66.0,4.0
328,Okha,99,RU,1595121107,88,53.57,142.95,58.86,8.28
329,Hambantota,40,LK,1595121109,100,6.12,81.12,73.4,2.24
330,Cabo San Lucas,5,MX,1595121110,35,22.89,-109.91,89.6,11.41
331,Kysyl-Syr,100,RU,1595121112,58,63.9,122.76,68.76,4.63
332,Derbent,0,RU,1595121113,68,42.07,48.29,78.17,0.36
333,Beloha,0,MG,1595121114,83,-25.17,45.05,58.6,7.67
334,Pisco,0,PE,1595121116,82,-13.7,-76.22,61.0,12.75
335,Trairi,2,BR,1595121117,84,-3.28,-39.27,75.99,11.14
336,Pandharpur,56,IN,1595121118,87,17.67,75.33,75.99,5.97
337,Bintulu,20,MY,1595121119,94,3.17,113.03,78.8,3.36
338,Andenes,98,NO,1595121121,93,69.31,16.12,50.0,5.82
339,Nantucket,90,US,1595121044,94,41.28,-70.1,68.0,6.93
340,Muncar,77,ID,1595121124,84,-8.43,114.33,77.34,3.62
341,Donskoye,0,RU,1595121125,68,45.46,41.97,68.0,6.71
342,Örnsköldsvik,69,SE,1595121126,82,63.29,18.72,59.0,4.7
343,Necochea,50,AR,1595121128,86,-38.55,-58.74,50.47,3.44
344,Ape,100,LV,1595121129,84,57.54,26.69,58.48,0.81
345,Wexford,59,IE,1595121131,76,52.33,-6.46,55.0,5.99
346,Ancud,75,CL,1595121132,100,-41.87,-73.82,51.01,10.29
347,Andra,0,RU,1595121133,89,62.51,65.89,66.02,5.88
348,Bayan,100,CN,1595121135,66,46.08,127.4,78.01,1.43
349,Horasan,0,TR,1595121136,66,40.05,42.17,61.2,2.26
350,Yegros,0,PY,1595121137,59,-26.45,-56.4,72.1,9.64
351,Fort Saint James,21,CA,1595121139,59,54.43,-124.25,67.78,5.53
352,‘Ewa Beach,1,US,1595121131,49,21.32,-158.01,91.4,8.05
353,Isangel,20,VU,1595121141,57,-19.55,169.27,77.0,10.29
354,San Quintín,0,MX,1595121142,70,30.48,-115.95,72.09,18.03
355,Bagamoyo,95,TZ,1595121144,83,-6.43,38.9,68.61,6.69
356,Casper,1,US,1595120883,19,42.87,-106.31,86.0,4.7
357,Bonthe,100,SL,1595121146,85,7.53,-12.51,76.08,3.91
358,Seoul,90,KR,1595120968,94,37.57,126.98,69.8,3.36
359,Port-Gentil,100,GA,1595121149,85,-0.72,8.78,73.99,10.29
360,Nevel',97,RU,1595121150,91,56.02,29.93,56.77,2.93
361,Catuday,79,PH,1595121151,77,16.29,119.81,83.07,9.73
362,Flinders,1,AU,1595121153,67,-34.58,150.86,62.01,5.01
363,Sorso,0,IT,1595121154,88,40.8,8.58,68.0,2.24
364,Khovd,94,MN,1595121156,43,48.01,91.64,69.22,3.06
365,Kembé,96,CF,1595121070,95,4.62,21.89,68.85,2.59
366,Dārāb,49,IR,1595121158,25,28.75,54.54,82.35,6.93
367,Leningradskiy,28,RU,1595121100,75,69.38,178.42,41.14,10.98
368,Thunder Bay,40,CA,1595121160,88,48.4,-89.32,71.01,8.05
369,Matara,86,LK,1595121161,85,5.95,80.54,79.32,10.94
370,San Patricio,20,MX,1595121162,74,19.22,-104.7,82.4,11.41
371,Alofi,96,NU,1595121164,65,-19.06,-169.92,82.4,11.41
372,Chicama,41,PE,1595121165,83,-7.84,-79.15,60.98,5.84
373,Hualmay,6,PE,1595121166,83,-11.1,-77.61,59.31,8.16
374,Kamojimachō-jōgejima,40,JP,1595121167,83,34.07,134.35,80.6,6.93
375,Bahía de Caráquez,75,EC,1595121168,78,-0.6,-80.42,73.4,11.41
376,Verkhnyaya Inta,100,RU,1595121169,90,65.98,60.31,54.1,7.92
377,Teknāf,100,BD,1595121171,86,20.86,92.31,81.16,7.31
378,West Wendover,1,US,1595121126,11,40.74,-114.07,96.8,6.93
379,Port Hardy,90,CA,1595120959,82,50.7,-127.42,62.6,5.82
380,Eureka,25,US,1595121136,77,40.8,-124.16,69.01,1.01
381,Abaza,59,RU,1595121175,79,52.66,90.09,57.31,2.75
382,Port Lincoln,9,AU,1595121176,63,-34.73,135.87,56.26,22.41
383,Mehamn,18,NO,1595120890,75,71.04,27.85,51.76,4.97
384,Sorong,0,ID,1595121178,78,-0.88,131.25,81.27,6.49
385,Kununurra,17,AU,1595121180,17,-15.77,128.73,77.0,6.93
386,Lixouri,0,GR,1595121181,67,38.2,20.43,72.3,12.33
387,Laguna,1,US,1595121182,22,38.42,-121.42,98.01,9.17
388,Gospić,19,HR,1595121183,71,44.55,15.37,55.4,2.24
389,Margate,94,GB,1595121184,81,51.38,1.39,62.01,1.01
390,Tura,97,IN,1595121185,97,25.52,90.22,75.78,7.99
391,Braço do Norte,0,BR,1595121186,85,-28.27,-49.17,64.89,3.09
392,Tara,44,RU,1595121188,95,56.89,74.37,71.24,5.82
393,Pio XII,0,BR,1595121189,71,-3.83,-45.15,73.09,0.72
394,Stonewall,75,CA,1595121190,88,50.13,-97.33,66.0,6.93
395,Shellbrook,75,CA,1595121191,60,53.22,-106.4,69.8,8.05
396,Laas,5,IT,1595121192,76,46.62,10.7,53.6,5.82
397,Riohacha,0,CO,1595121143,75,11.54,-72.91,82.08,10.27
398,Nanortalik,96,GL,1595121123,78,60.14,-45.24,46.92,3.53
399,Hazorasp,0,UZ,1595121196,57,41.32,61.07,75.2,2.24
400,Praia da Vitória,75,PT,1595121197,77,38.73,-27.07,69.8,8.66
401,Krasnokamensk,100,RU,1595121199,89,50.1,118.04,58.35,11.77
402,Flin Flon,100,CA,1595121200,86,54.77,-101.86,58.23,5.19
403,Abu Samrah,0,SY,1595121202,63,35.3,37.18,65.86,5.17
404,Kumul,100,CN,1595121110,13,42.8,93.45,87.8,9.04
405,Lipari,0,IT,1595121204,77,38.47,14.95,73.99,2.24
406,Dalvik,90,IS,1595121036,81,65.97,-18.53,42.8,16.11
407,Lagos,20,NG,1595121100,94,6.58,3.75,75.2,2.24
408,Qian’an,100,CN,1595121208,68,44.99,124.06,71.8,14.25
409,Fasa,3,IR,1595121209,36,28.94,53.65,78.8,4.7
410,Gelemso,100,ET,1595121210,95,8.82,40.52,57.18,6.96
411,Havelock,20,US,1595121074,32,34.88,-76.9,84.99,6.93
412,Fare,47,PF,1595121213,83,-16.7,-151.02,75.67,22.32
413,Taoudenni,0,ML,1595121214,12,22.68,-3.98,99.99,6.69
414,Kaeo,100,NZ,1595121215,3,-35.1,173.78,59.0,11.01
415,Massaguet,100,TD,1595121216,63,12.48,15.44,80.55,6.33
416,Tuy Hoa,100,VN,1595121217,68,13.08,109.3,83.84,5.79
417,Biltine,0,TD,1595121219,58,14.53,20.92,82.29,4.32
418,Ilulissat,100,GL,1595121220,37,69.22,-51.1,53.6,3.36
419,Aranos,0,NA,1595121221,51,-24.13,19.12,45.16,9.31
420,Lorengau,62,PG,1595121222,73,-2.02,147.27,83.07,5.59
421,Aktash,0,RU,1595121223,58,50.3,87.73,59.43,0.49
422,Hobyo,94,SO,1595121176,74,5.35,48.53,77.4,27.47
423,Hope,1,US,1595121225,52,33.67,-93.59,93.99,5.82
424,Diapaga,84,BF,1595121227,85,12.07,1.79,75.6,5.08
425,Aklavik,90,CA,1595121228,70,68.22,-135.01,48.2,10.29
426,Chuguyevka,6,RU,1595121229,52,44.17,133.86,82.38,1.41
427,Nabire,26,ID,1595121230,62,-3.37,135.48,85.14,1.81
428,Isla Vista,1,US,1595120974,68,34.41,-119.86,79.0,14.99
429,Kokopo,67,PG,1595121233,64,-4.35,152.26,83.98,2.68
430,Lakhipur,80,IN,1595121234,88,26.03,90.3,80.51,2.06
431,Tual,99,ID,1595121235,82,-5.67,132.75,78.35,16.28
432,Rawson,100,AR,1595121218,82,-43.3,-65.1,46.11,12.64
433,Lagoa,0,PT,1595121237,79,39.05,-27.98,68.32,12.35
434,Bonga,100,ET,1595121238,91,7.28,36.23,57.72,2.26
435,Alice Springs,75,AU,1595120955,21,-23.7,133.88,62.6,6.93
436,Dzhebariki-Khaya,89,RU,1595121241,73,62.22,135.8,76.28,3.62
437,Darhan,100,MN,1595121242,78,49.49,105.92,52.92,2.33
438,Were Īlu,100,ET,1595121244,83,10.6,39.43,53.49,0.29
439,Hofn,6,IS,1595121245,66,64.25,-15.21,50.9,7.63
440,Whitehorse,75,CA,1595121246,63,60.72,-135.05,62.01,12.75
441,Vila Velha,40,BR,1595121247,88,-20.33,-40.29,68.0,2.24
442,San Rafael del Sur,40,NI,1595121249,79,11.85,-86.44,84.2,9.17
443,Merauke,95,ID,1595121250,74,-8.47,140.33,78.87,8.79
444,Stupari,75,BA,1595121251,93,44.31,18.68,55.4,5.82
445,Syriam,75,MM,1595121252,94,16.77,96.24,80.6,4.7
446,High Level,75,CA,1595121254,56,58.52,-117.14,71.6,10.29
447,Faya,80,SA,1595121155,42,18.39,42.45,71.6,5.06
448,Tongchuanshi,2,CN,1595121257,55,35.08,109.09,74.53,1.68
449,Hailey,5,US,1595121258,17,43.52,-114.32,84.2,6.93
450,Isfahan,0,IR,1595121259,37,32.66,51.68,66.2,4.7
451,Nhulunbuy,75,AU,1595121260,65,-12.23,136.77,78.8,11.41
452,Cidreira,66,BR,1595121262,88,-30.18,-50.21,65.1,9.78
453,Arrondissement de Carpentras,0,FR,1595121263,46,44.08,5.17,71.6,10.29
454,Hudson Bay,100,CA,1595121264,91,52.85,-102.38,65.17,2.98
455,Lesnoy,100,RU,1595121266,89,57.62,63.08,67.53,3.0
456,Porto-Novo,86,BJ,1595121267,86,6.5,2.6,75.27,6.76
457,Nísia Floresta,20,BR,1595121268,94,-6.09,-35.21,71.6,8.05
458,Saquarema,20,BR,1595121269,77,-22.92,-42.51,69.8,3.36
459,Talant,0,FR,1595121271,77,47.34,5.01,62.6,5.82
460,Cercal,1,PT,1595121272,90,37.81,-8.67,62.01,1.99
461,Russell,1,US,1595121273,75,32.35,-85.2,89.6,2.89
462,Fort Nelson,75,CA,1595121006,44,58.81,-122.7,75.2,4.7
463,Nishihara,20,JP,1595121276,84,26.18,127.76,86.0,14.99
464,Anadyr,40,RU,1595121277,66,64.75,177.48,53.6,17.9
465,Sandpoint,1,US,1595121278,21,48.28,-116.55,82.99,6.93
466,Yulara,100,AU,1595121016,47,-25.24,130.99,55.4,9.17
467,Ransang,86,PH,1595121281,64,8.96,117.58,85.3,1.86
468,Warmbad,0,NA,1595121282,32,-28.45,18.73,56.68,11.25
469,Lethem,80,GY,1595121283,83,3.38,-59.8,76.64,3.89
470,Leshukonskoye,0,RU,1595121284,86,64.9,45.76,49.53,3.13
471,Lompoc,1,US,1595121243,64,34.64,-120.46,69.8,13.87
472,Ahipara,100,NZ,1595121287,86,-35.17,173.17,59.99,12.91
473,Gandajika,0,CD,1595121288,43,-6.75,23.95,61.88,9.44
474,Tynne,67,UA,1595121289,98,50.6,26.18,60.01,5.01
475,Brinkovskaya,3,RU,1595121290,77,46.03,38.59,67.06,10.51
476,Mackay,90,AU,1595121292,77,-21.15,149.2,68.0,11.41
477,Kautokeino,83,NO,1595121293,93,69.01,23.04,48.63,4.85
478,Tazovsky,99,RU,1595121168,71,67.47,78.7,50.31,10.07
479,Matagami,90,CA,1595121295,57,49.75,-77.63,75.2,5.82
480,Minsk,1,BY,1595121079,93,53.9,27.57,53.6,2.24
481,Sibolga,100,ID,1595121298,73,1.74,98.78,79.59,2.75
482,Rocha,100,UY,1595121266,91,-34.48,-54.33,61.99,3.89
483,Kavaratti,100,IN,1595121147,77,10.57,72.64,82.54,19.26
484,Yenagoa,100,NG,1595121302,95,4.92,6.26,74.1,4.05
485,Flagstaff,1,US,1595121015,27,35.2,-111.65,75.99,8.05
486,Shimoda,75,JP,1595121306,83,34.67,138.95,77.0,17.22
487,Valley City,1,US,1595121299,64,46.92,-98.0,75.2,10.29
488,Houma,40,US,1595121309,70,29.6,-90.72,86.0,8.05
489,Chum Phae,100,TH,1595121310,76,16.54,102.1,82.29,3.76
490,Zaraza,1,VE,1595121311,93,9.35,-65.32,74.79,3.98
491,Carutapera,42,BR,1595121312,91,-1.2,-46.02,74.05,4.36
492,Cherlak,100,RU,1595121314,78,54.16,74.81,68.05,3.89
493,Faranah,100,GN,1595121315,93,10.04,-10.74,66.92,6.15
494,Nicolás Bravo,20,MX,1595121316,70,18.45,-88.92,86.0,4.7
495,Berdigestyakh,100,RU,1595121122,49,62.1,126.7,74.21,1.28
496,Ishigaki,75,JP,1595121319,79,24.34,124.16,89.6,14.99
497,Lukh,100,RU,1595121320,96,57.01,42.26,53.98,5.32
498,Road Town,0,VG,1595121265,79,18.42,-64.62,82.0,13.0
499,Abū Zabad,97,SD,1595121322,73,12.35,29.25,76.86,16.02
500,Ixtapa,90,MX,1595121246,79,20.7,-105.2,86.0,6.93
501,Kuusamo,75,FI,1595121325,82,65.97,29.18,60.8,4.7
502,Bom Jesus da Lapa,0,BR,1595121327,66,-13.26,-43.42,66.63,7.14
503,Sept-Îles,40,CA,1595121062,82,50.2,-66.38,68.0,3.36
504,Port Shepstone,0,ZA,1595121329,28,-30.74,30.45,64.26,7.09
505,Maragogi,2,BR,1595121331,80,-9.01,-35.22,74.73,9.84
506,Reconquista,0,AR,1595121332,58,-29.15,-59.65,72.03,11.77
507,Doha,0,QA,1595121333,67,25.29,51.53,96.01,6.93
508,Bay City,20,US,1595121164,55,43.59,-83.89,86.0,13.87
509,Grindavik,75,IS,1595121336,81,63.84,-22.43,46.4,12.75
510,Santa María la Alta,0,MX,1595121337,46,18.6,-97.67,73.0,5.99
511,Hongjiang,100,CN,1595121338,91,27.11,110.0,76.21,5.86
512,Bayanday,16,RU,1595121339,60,53.07,105.51,54.34,10.02
513,Vostok,44,RU,1595121129,57,46.49,135.88,80.38,3.36
514,Nuevitas,99,CU,1595121342,88,21.55,-77.26,80.6,8.05
515,Biu,100,NG,1595121343,93,10.61,12.19,69.42,6.06
516,Athabasca,9,CA,1595121344,70,54.72,-113.29,68.04,6.42
517,Volksrust,0,ZA,1595121345,43,-27.37,29.88,42.76,0.4
518,Piro,100,IN,1595121347,64,25.33,84.42,88.61,7.11
519,Lishan,100,CN,1595121348,89,31.86,113.3,72.34,5.53
520,Kerman,0,IR,1595121350,22,30.28,57.08,75.2,11.41
521,Ouégoa,2,NC,1595121351,48,-20.35,164.43,74.41,7.67
522,Pombia,87,IT,1595121352,88,45.65,8.63,64.99,4.7
523,Whitehaven,35,GB,1595121353,91,54.55,-3.58,54.0,9.31
524,Vila,0,PT,1595121190,71,42.03,-8.16,64.0,2.15
525,Kawalu,40,ID,1595121356,78,-7.38,108.21,74.52,2.08
526,Baker City,1,US,1595121357,18,44.77,-117.83,87.8,12.75
527,Sārangarh,100,IN,1595121359,73,21.6,83.08,82.56,8.05
528,Pangoa,15,PE,1595121360,80,-12.12,-73.0,70.45,2.68
529,Bolitoc,100,PH,1595121361,63,15.74,119.88,86.09,1.1
530,La Rochelle,0,FR,1595121362,82,46.17,-1.15,64.4,5.82
531,Ca Mau,0,VN,1595121364,75,9.18,105.15,83.57,1.72
532,Chara,100,RU,1595121365,87,56.91,118.26,52.7,4.34
533,Maumere,0,ID,1595121366,67,-8.62,122.21,80.71,2.19
534,Kerema,90,PG,1595121367,87,-7.96,145.78,78.1,6.96
535,Māngrol,0,IN,1595121368,81,21.12,70.12,83.88,14.94
536,Kemin,100,KG,1595121369,42,42.78,75.69,71.67,4.18
537,Plettenberg Bay,1,ZA,1595121370,76,-34.05,23.37,55.99,4.54
538,Roseau,13,DM,1595121164,77,15.3,-61.39,81.54,10.96
539,Scarborough,96,GB,1595121373,76,54.28,-0.4,55.0,11.63
540,Mpongwe,0,ZM,1595121374,93,-13.51,28.16,45.45,6.64
541,Krasnosel'kup,51,RU,1595121375,61,65.7,82.47,57.16,5.82
542,Aitape,100,PG,1595121377,73,-3.14,142.35,80.15,6.33
543,Waycross,1,US,1595121378,51,31.21,-82.35,87.8,4.7
544,Palmer,20,US,1595121379,83,42.16,-72.33,73.99,1.95
545,Lodja,99,CD,1595121380,54,-3.48,23.43,68.34,1.19
546,Changli,100,CN,1595121381,60,39.7,119.15,77.77,13.13
547,Rabaul,89,PG,1595121383,68,-4.2,152.17,83.01,1.9
548,Lázaro Cárdenas,0,MX,1595121384,78,17.96,-102.2,82.62,8.01
549,Atambua,0,ID,1595121385,45,-9.11,124.89,80.28,1.36
550,Sabang,52,ID,1595121386,74,5.89,95.32,82.33,3.29
551,Namtsy,100,RU,1595121136,60,62.72,129.67,71.6,6.71
552,Umeå,44,SE,1595121389,93,63.83,20.26,61.0,5.82
553,Bathsheba,40,BB,1595121390,78,13.22,-59.52,82.4,13.87
554,Borogontsy,100,RU,1595121391,62,62.67,131.17,71.92,5.08
555,Pontes e Lacerda,1,BR,1595121393,48,-15.23,-59.34,75.63,1.66
556,Kantunilkín,75,MX,1595121394,79,21.09,-87.45,84.2,4.7
557,Kamina,0,CD,1595121395,72,-8.74,24.99,52.05,6.91
558,Cherepovets,0,RU,1595121396,88,59.13,37.9,54.39,5.19
559,Ürümqi,100,CN,1595121398,28,43.8,87.6,86.0,4.47
560,Smithers,75,CA,1595121245,77,54.78,-127.17,64.4,4.7
561,Colorado,0,BR,1595121400,63,-22.84,-51.97,67.37,8.81
562,Ballina,0,AU,1595121401,68,-28.87,153.57,66.99,6.93
563,Dudinka,31,RU,1595121165,87,69.41,86.18,51.8,8.95
