,City,Cloudiness,Country,Date,Humidity,Lat,Lng,Max Temp,Wind Speed
0,Qaanaaq,99,GL,1595197530,69,77.48,-69.36,47.59,1.74
1,Punta Arenas,75,CL,1595197770,69,-53.15,-70.92,35.6,6.93
2,Artyom,0,AZ,1595197772,83,40.47,50.33,80.6,4.7
3,Waddān,0,LY,1595197773,57,29.16,16.14,78.17,19.42
4,Usinsk,0,RU,1595197774,87,65.99,57.53,50.76,9.98
5,Hobart,75,AU,1595197685,70,-42.88,147.33,46.4,5.82
6,Sri Aman,100,MY,1595197592,94,1.24,111.46,77.0,0.96
7,Hermanus,2,ZA,1595197736,97,-34.42,19.23,53.01,5.99
8,Tautira,75,PF,1595197523,65,-17.73,-149.15,80.6,6.93
9,Avarua,73,CK,1595197679,78,-21.21,-159.78,75.2,16.11
10,Mataura,88,NZ,1595197780,83,-46.19,168.86,39.0,3.0
11,Nevel',88,RU,1595197781,92,56.02,29.93,58.01,2.53
12,Griffith,1,US,1595197782,74,41.53,-87.42,80.6,12.75
13,Ypané,85,PY,1595197783,39,-25.45,-57.53,84.2,8.05
14,Saint Paul Harbor,90,US,1595197683,87,57.79,-152.41,57.2,10.29
15,Ushuaia,0,AR,1595197635,86,-54.8,-68.3,28.4,8.05
16,Tupik,88,RU,1595197551,91,54.43,119.93,59.32,6.93
17,Iisalmi,41,FI,1595197788,77,63.56,27.19,66.2,1.12
18,Puerto Ayora,75,EC,1595197789,73,-0.74,-90.35,75.2,13.87
19,Deputatsky,100,RU,1595197790,68,69.3,139.9,58.17,2.44
20,New Norfolk,74,AU,1595197741,84,-42.78,147.06,45.0,3.0
21,Konëvo,0,RU,1595197785,75,62.12,39.32,53.87,2.28
22,Port Blair,99,IN,1595197793,78,11.67,92.75,80.71,2.59
23,Sakakah,0,SA,1595197794,9,29.97,40.21,93.2,11.41
24,Bluff,89,NZ,1595197795,83,-46.6,168.33,39.0,3.0
25,Boquira,63,BR,1595197796,58,-12.82,-42.73,68.77,7.4
26,Busselton,54,AU,1595197737,76,-33.65,115.33,46.99,8.34
27,Upernavik,74,GL,1595197799,53,72.79,-56.15,49.84,6.93
28,Namatanai,2,PG,1595197743,70,-3.67,152.43,82.15,6.02
29,Rikitea,49,PF,1595197801,65,-23.12,-134.97,68.68,12.3
30,Nikolskoye,3,RU,1595197528,72,59.7,30.79,64.4,4.47
31,Kapaa,90,US,1595197803,74,22.08,-159.32,84.2,14.99
32,Ribeira Grande,72,PT,1595197804,76,38.52,-28.7,69.28,4.65
33,Saint-Philippe,20,RE,1595197739,77,-21.36,55.77,64.4,9.17
34,Kapoeta,74,SS,1595197806,65,4.77,33.59,71.46,3.51
35,Cidreira,66,BR,1595197571,77,-30.18,-50.21,66.42,10.36
36,Butaritari,93,KI,1595197697,77,3.07,172.79,83.39,16.84
37,Anadyr,20,RU,1595197810,58,64.75,177.48,53.6,6.71
38,Tazovsky,54,RU,1595197585,88,67.47,78.7,47.32,12.08
39,Mareeba,14,AU,1595197812,82,-17.0,145.43,60.8,11.41
40,Eureka,40,US,1595197618,72,40.8,-124.16,62.01,5.82
41,Richards Bay,0,ZA,1595197814,85,-28.78,32.04,58.35,4.61
42,Yulara,90,AU,1595197754,71,-25.24,130.99,53.6,10.29
43,Udachny,90,RU,1595197816,100,66.42,112.4,53.6,6.71
44,Hilo,20,US,1595197524,62,19.73,-155.09,84.2,11.41
45,Lavrentiya,59,RU,1595197742,58,65.58,-171.0,51.13,12.73
46,Lata,0,PT,1595197820,92,40.16,-8.33,63.0,2.01
47,Vanavara,14,RU,1595197779,89,60.34,102.28,46.29,1.7
48,George Town,40,MY,1595197611,100,5.41,100.34,78.8,4.7
49,Tiksi,20,RU,1595197699,64,71.69,128.87,60.64,9.46
50,Adrar,33,MR,1595197824,20,20.5,-10.07,96.22,6.33
51,Lichinga,1,MZ,1595197825,90,-13.31,35.24,50.85,8.7
52,Albany,50,US,1595197826,50,42.6,-73.97,93.0,4.36
53,Port Alfred,0,ZA,1595197827,71,-33.59,26.89,60.24,6.98
54,Jamestown,20,US,1595197692,94,42.1,-79.24,75.99,10.29
55,Caravelas,91,BR,1595197717,82,-17.71,-39.25,71.91,7.65
56,Kiruna,92,SE,1595197831,93,67.86,20.23,53.6,4.7
57,Rome,1,US,1595197832,58,43.21,-75.46,87.8,6.93
58,Howard Springs,20,AU,1595197833,88,-12.5,131.05,72.0,3.36
59,Belmonte,75,BR,1595197834,94,-15.86,-38.88,69.8,2.24
60,Hamilton,75,US,1595197646,100,39.18,-84.53,73.4,26.4
61,Half Moon Bay,5,US,1595197837,56,37.46,-122.43,75.0,9.17
62,Gigmoto,85,PH,1595197838,81,13.78,124.39,81.39,5.26
63,Naze,75,JP,1595197839,83,28.37,129.48,84.2,12.75
64,Cape Town,40,ZA,1595197838,93,-33.93,18.42,60.01,9.17
65,Airai,24,TL,1595197742,56,-8.93,125.41,53.74,2.89
66,Vikulovo,24,RU,1595197842,93,56.82,70.61,65.73,5.57
67,Bonavista,66,CA,1595197843,76,48.65,-53.11,60.31,0.58
68,Tasiilaq,0,GL,1595197844,76,65.61,-37.64,50.0,9.17
69,Goderich,90,CA,1595197846,83,43.75,-81.72,78.01,15.82
70,Gorin,98,RU,1595197847,75,51.2,136.67,74.17,3.76
71,Harper,90,LR,1595197848,89,4.38,-7.72,75.94,9.95
72,Ostrovnoy,0,RU,1595197849,72,68.05,39.51,61.88,14.52
73,Kieta,0,PG,1595197850,67,-6.22,155.63,83.71,4.88
74,Sinnamary,82,GF,1595197760,80,5.38,-52.95,79.86,9.46
75,Cabo San Lucas,20,MX,1595197595,33,22.89,-109.91,93.2,21.92
76,Bullhead City,75,US,1595197853,8,35.15,-114.57,115.0,9.17
77,Ponta do Sol,20,PT,1595197855,64,32.67,-17.1,71.6,6.93
78,Castro,21,BR,1595197856,90,-24.79,-50.01,58.01,3.53
79,Kasangulu,20,CD,1595197857,83,-4.59,15.17,71.6,2.91
80,Nago,1,JP,1595197858,88,26.59,127.98,82.4,3.36
81,Caracollo,100,PE,1595197859,38,-14.92,-70.66,49.77,4.43
82,Tvøroyri,66,FO,1595197860,87,61.56,-6.81,50.0,10.29
83,Angoche,1,MZ,1595197775,81,-16.23,39.91,71.29,9.93
84,Berlevåg,100,NO,1595197862,88,70.86,29.09,52.36,7.0
85,Menongue,0,AO,1595197863,61,-14.66,17.69,45.64,3.91
86,Port Elizabeth,0,ZA,1595197864,100,-33.92,25.57,53.6,3.36
87,Dimasalang,99,PH,1595197865,77,12.19,123.86,82.63,6.08
88,Yellowknife,75,CA,1595197758,56,62.46,-114.35,71.6,10.29
89,Babu,94,CN,1595197868,88,24.42,111.52,78.12,2.98
90,Lüderitz,0,NA,1595197581,26,-26.65,15.16,71.6,11.41
91,Talnakh,95,RU,1595197734,87,69.49,88.4,46.4,15.66
92,Chokurdakh,59,RU,1595197732,45,70.63,147.92,71.8,16.75
93,Oyón,23,PE,1595197872,44,-10.67,-76.77,49.78,4.79
94,Najrān,75,SA,1595197756,77,17.49,44.13,68.0,12.75
95,Ruteng,41,ID,1595197875,100,-8.61,120.47,60.76,2.77
96,Cockburn Town,40,TC,1595197876,74,21.46,-71.14,84.2,18.34
97,Middletown,75,US,1595197877,100,39.52,-84.4,73.4,4.7
98,Barentu,100,ER,1595197703,87,15.11,37.59,70.0,9.66
99,Senanga,0,ZM,1595197880,59,-16.12,23.27,51.78,6.93
100,Sharlyk,0,RU,1595197881,89,52.92,54.75,62.15,6.85
101,Iqaluit,90,CA,1595197882,93,63.75,-68.51,42.8,5.82
102,Guerrero Negro,4,MX,1595197883,63,27.98,-114.06,77.29,17.92
103,Hithadhoo,100,MV,1595197884,77,-0.6,73.08,83.52,16.37
104,Saint George,1,US,1595197609,7,37.1,-113.58,107.01,12.75
105,San Cristobal,20,VE,1595197886,36,7.77,-72.22,93.2,12.75
106,Geraldton,0,AU,1595197739,87,-28.77,114.6,48.2,5.82
107,Bredasdorp,4,ZA,1595197888,93,-34.53,20.04,55.4,0.69
108,Alexandria,0,EG,1595197736,78,31.22,29.96,77.0,9.17
109,Murray Bridge,54,AU,1595197874,93,-35.12,139.27,46.99,7.29
110,Bambous Virieux,75,MU,1595197892,77,-20.34,57.76,68.0,14.99
111,Zacualpan,75,MX,1595197893,78,21.25,-105.17,77.0,5.82
112,Lagoa,29,PT,1595197894,79,39.05,-27.98,69.19,5.14
113,Wanning,100,CN,1595197895,82,18.8,110.4,82.24,10.98
114,Arlit,68,NE,1595197896,33,18.74,7.39,90.27,12.53
115,Port Shepstone,12,ZA,1595197897,82,-30.74,30.45,59.49,6.51
116,Coyhaique,90,CL,1595197898,90,-45.58,-72.07,33.8,4.7
117,Mahébourg,75,MU,1595197692,77,-20.41,57.7,68.0,14.99
118,Fuerte Olimpo,0,PY,1595197900,40,-21.04,-57.87,79.63,6.93
119,Lengshuitan,100,CN,1595197901,95,26.41,111.6,73.35,2.91
120,Saint-Joseph,20,RE,1595197903,77,-21.37,55.62,64.4,9.17
121,Hong Kong,100,HK,1595197773,79,22.29,114.16,84.0,9.71
122,Santiago de Cao,18,PE,1595197905,84,-7.96,-79.24,61.56,13.4
123,Mar del Plata,90,AR,1595197677,100,-38.0,-57.56,52.0,13.87
124,Mergen,100,CN,1595197907,92,49.18,125.22,65.08,3.4
125,Chicama,8,PE,1595197908,72,-7.84,-79.15,64.72,7.74
126,Necochea,76,AR,1595197835,95,-38.55,-58.74,52.0,8.01
127,Te Anau,100,NZ,1595197910,85,-45.42,167.72,45.81,1.68
128,Port Macquarie,1,AU,1595197815,97,-31.43,152.92,48.99,7.02
129,Khatanga,98,RU,1595197912,78,71.97,102.5,51.8,2.62
130,Viersen,55,DE,1595197914,82,51.25,6.38,66.0,6.93
131,Umm Kaddadah,87,SD,1595197915,61,13.6,26.69,81.0,14.34
132,Panabá,83,MX,1595197916,80,21.28,-88.27,83.19,10.71
133,Ondjiva,0,AO,1595197917,44,-17.07,15.73,52.29,7.36
134,Burnie,12,AU,1595197918,67,-41.07,145.92,46.99,15.01
135,Muros,2,ES,1595197852,82,42.78,-9.06,66.99,8.99
136,São Filipe,86,CV,1595197920,82,14.9,-24.5,77.27,7.72
137,Rincon,20,US,1595197793,52,32.3,-81.24,93.2,10.29
138,Arrondissement d'Ajaccio,0,FR,1595197922,78,42.0,8.92,71.6,4.7
139,Vaini,90,TO,1595197833,100,-21.2,-175.2,66.2,4.7
140,Havre-St-Pierre,1,CA,1595197924,77,50.23,-63.6,69.8,9.17
141,Chinsali,0,ZM,1595197926,70,-10.54,32.08,53.37,9.75
142,Kimbe,4,PG,1595197927,71,-5.55,150.14,83.03,3.29
143,Narsaq,16,GL,1595197688,38,60.92,-46.05,60.8,6.93
144,Santa Fe,61,AR,1595197707,63,-31.63,-60.7,72.77,1.01
145,Qinzhou,98,CN,1595197930,80,21.95,108.62,83.05,4.74
146,Lebu,1,CL,1595197836,90,-37.62,-73.65,51.49,12.59
147,Ahipara,68,NZ,1595197932,80,-35.17,173.17,61.95,4.61
148,Vila Velha,75,BR,1595197821,94,-20.33,-40.29,69.8,5.82
149,Ketchikan,90,US,1595197934,77,55.34,-131.65,62.6,9.17
150,Machico,20,PT,1595197935,64,32.7,-16.77,71.6,6.93
151,Minsk,80,BY,1595197750,93,53.9,27.57,57.2,4.47
152,Ilulissat,95,GL,1595197726,46,69.22,-51.1,53.6,2.24
153,Floriano,37,BR,1595197938,45,-6.77,-43.02,81.25,9.26
154,Olafsvik,21,IS,1595197940,79,64.89,-23.71,48.27,6.53
155,Parrita,75,CR,1595197676,83,9.52,-84.32,75.2,3.36
156,Vardø,75,NO,1595197747,100,70.37,31.11,57.2,2.24
157,Tuktoyaktuk,75,CA,1595197689,75,69.45,-133.04,46.4,5.82
158,Gazojak,5,TM,1595197944,17,41.19,61.4,84.38,3.69
159,Jacareacanga,8,BR,1595197945,52,-6.22,-57.75,79.88,1.74
160,Santa Lucía,0,ES,1595197946,30,27.91,-15.54,86.0,28.86
161,Arraial do Cabo,0,BR,1595197724,83,-22.97,-42.03,71.6,16.11
162,Riyadh,8,SA,1595197815,24,24.69,46.72,93.2,2.86
163,Esperance,90,AU,1595197949,87,-33.87,121.9,46.4,5.82
164,Vostok,100,RU,1595197740,85,46.49,135.88,65.62,2.71
165,Longyearbyen,75,SJ,1595197951,87,78.22,15.64,44.6,11.41
166,Boulder City,1,US,1595197952,9,35.98,-114.83,105.8,9.17
167,Port Augusta,90,AU,1595197953,76,-32.5,137.77,48.2,4.7
168,Saldanha,0,ZA,1595197925,87,-33.01,17.94,48.2,3.36
169,Mabaruma,33,GY,1595197956,87,8.2,-59.78,76.89,3.47
170,Barrow,40,US,1595197730,74,71.29,-156.79,37.4,12.75
171,Manado,20,ID,1595197843,100,1.49,124.85,73.4,2.24
172,Quatre Cocos,75,MU,1595197959,77,-20.21,57.76,68.0,14.99
173,Omsukchan,4,RU,1595197960,53,62.53,155.8,62.1,3.94
174,Esim,38,GH,1595197703,91,4.87,-2.24,75.31,6.89
175,Avera,1,US,1595197962,39,33.19,-82.53,95.0,5.82
176,Haines Junction,100,CA,1595197687,44,60.75,-137.51,65.91,8.95
177,Atuona,15,PF,1595197964,74,-9.8,-139.03,79.57,14.83
178,Saskylakh,38,RU,1595197965,67,71.92,114.08,56.97,10.25
179,Ponta Delgada,75,PT,1595197967,72,37.73,-25.67,68.0,9.17
180,Los Llanos de Aridane,0,ES,1595197760,83,28.66,-17.92,78.01,13.87
181,Bethel,1,US,1595197738,55,41.37,-73.41,90.0,12.75
182,Hambantota,75,LK,1595197970,100,6.12,81.12,77.0,4.7
183,Chui,94,UY,1595197711,86,-33.7,-53.46,65.71,7.23
184,Barnaul,92,RU,1595197972,63,53.36,83.76,60.8,4.47
185,Rabat,40,MA,1595197973,94,33.99,-6.84,73.99,5.82
186,At-Bashi,70,KG,1595197974,58,41.17,75.81,53.83,0.96
187,Beausejour,29,CA,1595197975,42,50.06,-96.52,73.99,7.0
188,Massakory,80,TD,1595197976,44,13.0,15.73,86.72,6.46
189,Kodinsk,85,RU,1595197977,65,58.69,99.18,52.99,2.28
190,Smirnykh,100,RU,1595197979,91,49.75,142.83,62.92,2.71
191,Kaifeng,0,CN,1595197980,94,34.79,114.35,68.0,3.6
192,Krasnyye Baki,96,RU,1595197981,98,57.13,45.16,59.52,4.03
193,Alofi,100,NU,1595197982,74,-19.06,-169.92,78.8,12.75
194,Dingle,73,PH,1595197725,88,11.0,122.67,75.83,3.91
195,Togur,86,RU,1595197984,97,58.36,82.83,63.12,5.23
196,Derzhavīnsk,10,KZ,1595197985,51,51.1,66.32,71.28,7.58
197,Cravo Norte,30,CO,1595197986,76,6.3,-70.2,81.3,4.38
198,Departamento de Maldonado,75,UY,1595197723,82,-34.67,-54.92,66.2,3.36
199,Marsh Harbour,4,BS,1595197988,77,26.54,-77.06,83.55,15.08
200,Alyangula,0,AU,1595197759,100,-13.85,136.42,64.4,2.24
201,Carnarvon,0,AU,1595197732,87,-24.87,113.63,48.2,8.05
202,East London,0,ZA,1595197992,65,-33.02,27.91,59.92,7.52
203,Hirara,40,JP,1595197993,83,24.8,125.28,84.2,6.93
204,Talaya,64,RU,1595197994,50,61.38,152.75,63.43,4.56
205,Maceió,90,BR,1595197832,100,-9.67,-35.74,71.6,6.93
206,Belturbet,0,IE,1595197996,94,54.1,-7.45,44.69,2.44
207,Honiara,75,SB,1595197948,74,-9.43,159.95,84.2,3.36
208,Bathsheba,20,BB,1595197998,66,13.22,-59.52,84.2,13.87
209,Batagay,65,RU,1595197999,63,67.63,134.63,70.23,2.33
210,Salalah,75,OM,1595197720,88,17.02,54.09,80.6,4.7
211,Campbell River,20,CA,1595197821,44,50.02,-125.24,78.8,9.17
212,Sittwe,100,MM,1595198002,84,20.15,92.9,80.76,1.72
213,Bengkulu,46,ID,1595198004,91,-3.8,102.27,75.4,5.06
214,Kédougou,20,SN,1595198005,78,12.56,-12.17,82.4,6.64
215,Tabas,0,IR,1595198006,13,33.6,56.92,93.2,9.17
216,Teahupoo,75,PF,1595198007,65,-17.83,-149.27,80.6,6.93
217,Fuling,95,CN,1595198008,82,29.7,107.39,74.39,2.89
218,Yumen,90,CN,1595198009,19,40.28,97.2,75.63,6.44
219,Pinega,0,RU,1595198010,66,64.7,43.39,54.57,2.33
220,Husavik,40,IS,1595197855,76,66.04,-17.34,48.2,10.29
221,Gaya,75,IN,1595197797,94,24.78,85.0,78.8,7.14
222,Nhulunbuy,19,AU,1595198014,73,-12.23,136.77,73.4,6.93
223,Cururupu,67,BR,1595198014,87,-1.83,-44.87,75.04,3.53
224,Soubre,100,CI,1595198016,97,5.79,-6.61,72.1,4.0
225,Amga,26,RU,1595198017,68,60.9,131.96,77.18,4.18
226,Codrington,64,AU,1595197753,79,-38.27,141.97,50.56,12.95
227,Shar,92,KZ,1595198019,63,49.59,81.05,64.9,4.83
228,Ocós,75,GT,1595198020,84,14.51,-92.19,86.0,11.41
229,Rowland Heights,1,US,1595198021,39,33.98,-117.91,90.0,8.05
230,Camacha,20,PT,1595198022,77,33.08,-16.33,69.8,10.29
231,Manuk Mangkaw,25,PH,1595198023,70,4.8,119.85,84.2,7.49
232,Atasū,39,KZ,1595198024,51,48.68,71.64,68.63,10.49
233,Wembley,0,AU,1595198025,76,-31.93,115.8,48.99,8.05
234,Champerico,75,GT,1595197933,88,14.3,-91.92,82.4,6.93
235,Port-Gentil,20,GA,1595198028,88,-0.72,8.78,75.2,11.68
236,Vila,0,PT,1595197855,80,42.03,-8.16,69.01,3.22
237,Itupiranga,42,BR,1595198030,61,-5.13,-49.33,80.6,2.39
238,Broken Hill,15,AU,1595198031,80,-31.95,141.43,39.2,9.19
239,Belaya Gora,53,RU,1595198032,40,68.53,146.42,75.13,16.73
240,Dikson,100,RU,1595197735,98,73.51,80.55,40.48,14.18
241,Ilebo,57,CD,1595198034,42,-4.32,20.58,70.3,1.34
242,Banda Aceh,93,ID,1595198035,79,5.56,95.32,79.47,4.74
243,Taitung City,20,TW,1595198036,88,22.76,121.14,77.0,4.7
244,Hobyo,84,SO,1595198037,73,5.35,48.53,77.2,23.38
245,Matamoros,75,MX,1595198039,28,25.53,-103.25,93.2,16.11
246,Kununurra,0,AU,1595198040,25,-15.77,128.73,57.2,5.55
247,Salisbury,8,GB,1595198041,66,51.07,-1.8,55.4,12.75
248,Działdowo,51,PL,1595198042,100,53.24,20.17,59.0,4.7
249,Båtsfjord,75,NO,1595198043,100,70.63,29.72,57.2,2.24
250,Sisimiut,78,GL,1595197864,72,66.94,-53.67,53.29,4.85
251,Bosaso,84,SO,1595198045,44,11.28,49.18,87.35,24.79
252,Alice Springs,65,AU,1595197923,65,-23.7,133.88,44.6,4.7
253,Guarapari,75,BR,1595198047,94,-20.67,-40.5,69.8,5.82
254,Malaya Purga,95,RU,1595198048,91,56.56,53.0,64.0,1.01
255,Zomba,2,MW,1595198049,92,-15.39,35.32,53.98,2.39
256,Qiongshan,100,CN,1595198051,88,20.01,110.35,80.6,6.71
257,Hasaki,75,JP,1595198052,94,35.73,140.83,77.0,6.93
258,Norman Wells,75,CA,1595198053,63,65.28,-126.83,64.4,5.82
259,Swan River,69,CA,1595198054,68,52.11,-101.27,66.96,4.34
260,Sanremo,20,IT,1595198055,94,43.82,7.76,73.4,5.82
261,Tynda,100,RU,1595198056,92,55.17,124.72,62.4,10.31
262,Simojovel,49,MX,1595198057,85,17.14,-92.71,75.81,2.82
263,Kruisfontein,0,ZA,1595198058,40,-34.0,24.73,52.77,4.85
264,Kemijärvi,86,FI,1595198059,83,66.71,27.43,56.77,6.11
265,Manjacaze,0,MZ,1595198060,92,-24.71,33.88,56.84,3.02
266,Lorengau,76,PG,1595198061,70,-2.02,147.27,83.82,9.48
267,Boende,67,CD,1595197763,79,-0.22,20.87,72.21,1.07
268,Guadalupe y Calvo,68,MX,1595198064,73,26.1,-106.97,66.74,2.59
269,Mossamedes,0,AO,1595198065,73,-15.2,12.15,67.46,7.02
270,Lubango,0,AO,1595198066,46,-14.92,13.49,49.77,4.41
271,Ţahţā,0,EG,1595198067,24,26.77,31.5,89.6,5.82
272,Ürümqi,94,CN,1595197844,42,43.8,87.6,80.6,8.95
273,Frankfurt am Main,33,DE,1595197947,68,50.12,8.68,75.0,3.36
274,Canutama,94,BR,1595198070,73,-6.53,-64.38,80.08,1.36
275,Yangi Marg`ilon,19,UZ,1595198071,31,40.43,71.72,78.8,9.17
276,Pevek,0,RU,1595198072,58,69.7,170.31,46.87,5.14
277,Bilma,33,NE,1595198073,15,18.69,12.92,95.56,9.48
278,Hay River,75,CA,1595198075,50,60.82,-115.8,77.0,4.68
279,Krasnyy Yar,40,RU,1595198076,69,46.53,48.35,77.0,2.24
280,Constitución,78,CL,1595198077,88,-35.33,-72.42,53.38,7.74
281,Abu Samrah,0,SY,1595198078,42,35.3,37.18,73.33,3.85
282,Leshukonskoye,0,RU,1595198079,74,64.9,45.76,52.97,2.95
283,Nanortalik,3,GL,1595198080,75,60.14,-45.24,48.94,7.18
284,San Patricio,40,MX,1595198081,74,19.22,-104.7,87.8,11.41
285,Sakaiminato,75,JP,1595198082,88,35.55,133.23,80.6,2.24
286,Paamiut,93,GL,1595198083,79,61.99,-49.67,47.71,2.91
287,Ihosy,16,MG,1595198084,89,-22.4,46.12,51.75,9.89
288,Fomboni,63,KM,1595198086,69,-12.28,43.74,78.15,25.64
289,New Baltimore,90,US,1595198087,100,42.68,-82.74,77.0,5.82
290,Arrondissement de Lannion,90,FR,1595198088,87,48.75,-3.42,60.8,9.17
291,Mahibadhoo,100,MV,1595198089,77,3.78,72.97,82.15,26.69
292,Yanji,100,CN,1595198090,92,42.91,129.51,65.16,10.51
293,Hondomachi-hondo,75,JP,1595198091,83,32.45,130.2,82.4,10.29
294,Mims,75,US,1595198092,74,28.67,-80.84,93.2,9.17
295,Sorong,77,ID,1595198006,88,-0.88,131.25,78.24,7.02
296,Bontang,7,ID,1595198095,88,0.13,117.5,77.14,5.41
297,Ullapool,43,GB,1595198096,90,57.9,-5.16,52.0,1.99
298,Darhan,43,MN,1595198097,68,49.49,105.92,53.29,2.13
299,Isangel,40,VU,1595198098,73,-19.55,169.27,75.2,4.7
300,Dongsheng,0,CN,1595198099,35,39.82,109.98,68.99,10.87
301,Ambilobe,17,MG,1595198100,70,-13.2,49.05,66.2,5.64
302,Hualmay,40,PE,1595198101,80,-11.1,-77.61,61.7,10.31
303,Viçosa do Ceará,40,BR,1595198103,67,-3.56,-41.09,71.08,2.8
304,Zhangjiakou,0,CN,1595198104,50,40.81,114.88,70.68,1.48
305,Cassilândia,0,BR,1595198105,43,-19.11,-51.73,68.18,5.84
306,Kaduna,83,NG,1595198106,92,10.52,7.44,69.87,6.38
307,Yaan,84,NG,1595198107,98,7.38,8.57,71.65,5.79
308,Kamaishi,90,JP,1595198108,87,39.27,141.88,69.71,1.81
309,Anito,92,PH,1595198109,81,12.45,125.29,82.27,3.47
310,Vao,13,NC,1595198111,69,-22.67,167.48,69.42,13.31
311,Thompson,75,CA,1595198112,41,55.74,-97.86,75.2,9.17
312,Tarko-Sale,100,RU,1595198113,92,64.92,77.78,52.0,17.9
313,kimparana,74,ML,1595198114,74,12.83,-4.92,80.44,7.14
314,Murgab,0,TM,1595198115,36,37.5,61.97,80.6,4.9
315,Tommot,100,RU,1595198045,71,58.96,126.29,72.1,2.89
316,Tuatapere,96,NZ,1595198117,83,-46.13,167.68,39.0,3.0
317,Lloydminster,90,CA,1595198118,68,53.28,-110.0,68.0,5.82
318,Den Helder,75,NL,1595198119,72,52.96,4.76,61.0,5.82
319,Garhwa,100,IN,1595198120,77,24.18,83.82,81.7,4.29
320,Tūkrah,0,LY,1595198122,77,32.53,20.58,75.22,12.39
321,Fuerte,1,PH,1595198123,74,17.54,120.36,80.74,5.5
322,Filingué,4,NE,1595198124,41,14.35,3.32,89.2,12.46
323,Severo-Kuril'sk,100,RU,1595198125,87,50.68,156.12,51.96,11.56
324,Souillac,75,MU,1595197935,77,-20.52,57.52,68.0,14.99
325,Honghu,49,CN,1595198127,91,29.82,113.46,72.21,1.68
326,Baft,0,IR,1595198128,23,29.23,56.61,68.45,7.0
327,Presidencia Roque Sáenz Peña,72,AR,1595198129,47,-26.79,-60.44,78.39,9.04
328,Sheregesh,40,RU,1595198130,82,52.92,87.99,52.9,2.55
329,Arman',68,RU,1595198132,60,59.7,150.17,61.18,7.14
330,São João da Barra,0,BR,1595198133,78,-21.64,-41.05,71.6,11.41
331,Cham,71,CH,1595197903,77,47.18,8.46,64.4,3.15
332,Kattivākkam,40,IN,1595198120,88,13.22,80.32,80.6,2.24
333,Dalvik,40,IS,1595198136,76,65.97,-18.53,48.2,10.29
334,Santa Ana,1,US,1595198137,50,33.75,-117.87,89.01,6.93
335,Skjervøy,100,NO,1595198138,86,70.03,20.97,51.85,2.89
336,Ngunguru,42,NZ,1595198139,3,-35.62,174.5,57.99,9.28
337,Balakhninskiy,100,RU,1595198140,88,58.01,114.28,51.87,2.64
338,Ust-Maya,0,RU,1595198141,63,60.42,134.53,76.78,8.19
339,Jatai,0,BR,1595198011,48,-17.88,-51.71,67.08,7.4
340,Jhābua,99,IN,1595198144,87,22.77,74.6,78.55,13.29
341,Molochnoye,97,RU,1595198145,88,59.29,39.68,57.87,4.94
342,Bangassou,100,CF,1595198146,96,4.74,22.82,68.68,1.7
343,Zhezkazgan,75,KZ,1595198147,49,47.8,67.71,73.4,8.95
344,Murchison,83,NZ,1595198148,78,-41.8,172.33,52.21,1.74
345,Beira,20,MZ,1595198149,83,-19.84,34.84,69.8,8.05
346,Starosubkhangulovo,10,RU,1595198150,92,53.1,57.44,60.62,2.86
347,Melipilla,75,CL,1595198151,93,-33.7,-71.22,59.0,9.17
348,Deniliquin,0,AU,1595197947,81,-35.53,144.97,43.39,8.41
349,Huadian,100,CN,1595198153,95,42.96,126.75,65.79,3.76
350,Palmas,13,BR,1595198155,42,-10.21,-48.36,80.6,5.82
351,La Solana,27,ES,1595198156,21,38.94,-3.24,82.99,3.0
352,Tura,100,IN,1595197963,99,25.52,90.22,74.61,7.02
353,Vestmannaeyjar,34,IS,1595198158,81,63.44,-20.27,49.64,12.37
354,Isla Mujeres,75,MX,1595198159,70,21.23,-86.73,86.0,3.36
355,Río Gallegos,40,AR,1595198160,90,-51.62,-69.22,32.0,4.7
356,Torbay,20,CA,1595198112,49,47.67,-52.73,71.6,11.41
357,Phan Thiet,100,VN,1595198162,86,10.93,108.1,77.85,3.47
358,Whitehorse,75,CA,1595198162,42,60.72,-135.05,69.01,9.17
359,Okhotsk,83,RU,1595198165,82,59.38,143.3,60.06,7.29
360,Henties Bay,0,NA,1595198111,22,-22.12,14.28,73.99,7.87
361,Kerrobert,75,CA,1595198167,52,51.92,-109.13,69.8,11.41
362,Markova,100,UA,1595198168,88,48.68,24.41,56.21,2.13
363,Seguin,1,US,1595198169,31,29.57,-97.96,100.4,3.36
364,Klaksvík,100,FO,1595198119,87,62.23,-6.59,50.0,10.29
365,Clyde River,90,CA,1595198171,75,70.47,-68.59,46.4,9.17
366,Gwanda,0,ZW,1595198172,64,-20.93,29.0,49.32,5.17
367,Kitui,92,KE,1595198173,88,-1.37,38.01,60.58,10.47
368,Khonsa,100,IN,1595198175,97,27.02,95.57,69.98,2.48
369,Tamasane,0,BW,1595198176,51,-22.42,27.4,48.96,6.85
370,Kenora,40,CA,1595198177,45,49.82,-94.43,68.0,16.11
371,Corinth,0,GR,1595198178,55,37.94,22.96,77.0,1.99
372,Inhambane,30,MZ,1595198179,83,-23.86,35.38,65.77,10.22
373,Ovalle,88,CL,1595198180,74,-30.6,-71.2,59.68,2.42
374,Yerbogachën,68,RU,1595198181,80,61.28,108.01,53.87,0.92
375,Provideniya,75,RU,1595198182,66,64.38,-173.3,55.4,8.95
376,Zhigansk,99,RU,1595198156,65,66.77,123.37,61.7,5.57
377,Kalang,74,PH,1595198185,77,5.92,121.36,82.06,5.53
378,Wajima,97,JP,1595198186,77,37.4,136.9,77.63,2.28
379,Karsun,0,RU,1595198187,93,54.2,46.98,56.16,5.99
380,Port Pirie,90,AU,1595198188,76,-33.18,138.02,48.2,4.7
381,Buala,55,SB,1595198189,71,-8.14,159.59,83.52,5.44
382,Kirakira,11,SB,1595198190,75,-10.45,161.92,82.47,7.31
383,Abong Mbang,61,CM,1595198191,97,3.98,13.18,66.78,2.66
384,Hauterive,11,FR,1595198192,55,46.09,3.45,66.99,3.36
385,Gryazovets,96,RU,1595198193,95,58.88,40.25,57.29,5.14
386,Vila Franca do Campo,75,PT,1595198194,68,37.72,-25.43,69.8,6.93
387,Fare,80,PF,1595198196,81,-16.7,-151.02,77.76,20.24
388,Merauke,100,ID,1595198106,87,-8.47,140.33,76.41,15.43
389,Sitka,90,US,1595198198,100,57.05,-135.33,55.4,8.05
390,Magadan,16,RU,1595198199,62,59.57,150.8,60.66,3.87
391,Baraki Barak,0,AF,1595198200,27,33.97,68.95,70.03,3.78
392,Sørland,68,NO,1595198201,85,67.67,12.69,55.11,12.24
393,Sabzawār,0,IR,1595198202,18,36.21,57.68,78.37,9.31
394,Russell,1,US,1595198203,47,32.35,-85.2,96.8,4.18
395,Praia da Vitória,75,PT,1595198204,77,38.73,-27.07,69.8,6.85
396,Mount Gambier,40,AU,1595198205,93,-37.83,140.77,44.6,6.93
397,Leningradskiy,52,RU,1595198206,71,69.38,178.42,41.05,7.54
398,Walvis Bay,0,NA,1595198022,16,-22.96,14.51,73.99,14.99
399,Pochinok,17,RU,1595198209,89,54.41,32.44,55.06,3.09
400,Bat Khela,0,PK,1595198067,53,34.62,71.97,81.75,4.56
401,Ranong,100,TH,1595198211,85,9.97,98.63,79.48,3.04
402,Muyezerskiy,5,RU,1595198212,75,63.93,31.65,61.02,1.9
403,Kisangani,100,CD,1595198213,70,0.52,25.2,72.79,0.34
404,Agirish,0,RU,1595198214,82,61.92,63.02,50.9,7.78
405,Ola,1,RU,1595198215,61,59.58,151.28,61.83,3.33
406,Moyale,100,KE,1595198216,71,3.52,39.06,66.74,15.84
407,Kaitangata,97,NZ,1595198218,72,-46.28,169.85,48.99,8.99
408,Charter Township of Clinton,90,US,1595198086,100,42.59,-82.92,77.0,5.82
409,Kainantu,60,PG,1595198220,86,-6.29,145.87,65.41,2.66
410,Kahului,20,US,1595198037,55,20.89,-156.47,87.8,27.51
411,Alibag,75,IN,1595198222,94,18.64,72.88,82.4,3.36
412,Gornopravdinsk,0,RU,1595198223,82,60.05,69.9,56.79,7.49
413,Vilhena,16,BR,1595198224,42,-12.74,-60.15,86.0,6.93
414,Lékoni,91,GA,1595198225,69,-1.58,14.26,76.82,3.6
415,San Policarpo,74,PH,1595198104,75,12.18,125.51,83.26,2.89
416,Pemberton,40,CA,1595198227,32,50.32,-122.8,84.2,2.24
417,Gornyy,66,RU,1595198228,87,55.12,83.91,61.02,3.78
418,Chilca,75,PE,1595198230,72,-12.52,-76.74,62.6,10.29
419,Sistranda,75,NO,1595198231,93,63.73,8.83,53.6,4.7
420,Kovdor,43,RU,1595198232,82,67.57,30.48,58.73,5.86
421,Pavlovskiy Posad,100,RU,1595198233,93,55.78,38.65,64.0,2.55
422,Faanui,71,PF,1595198234,83,-16.48,-151.75,77.34,20.67
423,San Luis,23,AR,1595198235,76,-33.3,-66.34,54.77,10.54
424,Neiafu,75,TO,1595198236,88,-18.65,-173.98,71.6,13.87
425,Windhoek,0,NA,1595198237,25,-22.56,17.08,53.6,3.36
426,Peniche,2,PT,1595198238,84,39.36,-9.38,66.0,4.0
427,Fortuna,20,US,1595198239,72,40.6,-124.16,70.0,14.99
428,Ormara,67,PK,1595198241,82,25.21,64.64,85.71,13.44
429,Fond du Lac,20,US,1595198058,45,43.77,-88.44,84.2,14.99
430,Butembo,61,CD,1595198243,93,0.15,29.28,56.03,2.21
431,Acaraú,43,BR,1595198244,79,-2.89,-40.12,76.93,12.75
432,Ishigaki,75,JP,1595198245,89,24.34,124.16,84.2,9.17
433,Marsá Maţrūḩ,20,EG,1595198050,78,31.35,27.25,75.2,8.21
434,Pavlivka,34,UA,1595198247,83,49.44,28.46,61.0,5.08
435,Kabalo,0,CD,1595198248,42,-6.05,26.92,65.97,3.8
436,Flinders,0,AU,1595198205,57,-34.58,150.86,53.01,5.99
437,Agadez,23,NE,1595198250,17,19.75,10.25,87.73,1.28
438,Novikovo,50,RU,1595198251,86,51.15,37.89,59.25,2.77
439,Solnechnyy,98,RU,1595198252,72,50.72,136.63,75.51,2.26
440,Nhamundá,51,BR,1595197955,65,-2.19,-56.71,79.57,3.06
441,Nānākuli,40,US,1595198255,49,21.39,-158.15,89.6,10.29
442,Cayenne,85,GF,1595198256,78,4.93,-52.33,82.4,4.7
443,Nome,75,US,1595198257,62,64.5,-165.41,57.2,9.17
444,Takoradze,7,GH,1595198257,91,4.88,-1.76,75.07,6.82
445,Granja,34,BR,1595198259,69,-3.12,-40.83,76.68,7.34
446,Bilibino,0,RU,1595198260,38,68.05,166.44,67.64,1.19
447,Kiunga,98,PG,1595198261,93,-6.12,141.29,75.49,3.67
448,Katerero,75,TZ,1595198263,73,-1.4,31.73,69.8,3.36
449,Manggar,90,ID,1595198264,81,-2.88,108.27,80.96,10.47
450,Leh,78,IN,1595198265,52,34.17,77.58,54.03,5.23
451,Gravdal,87,NO,1595198266,87,68.12,13.5,54.54,10.63
452,Cherskiy,0,RU,1595198267,43,68.75,161.3,71.44,5.91
453,Novy Urengoy,59,RU,1595198268,87,66.08,76.63,50.56,14.88
454,Kiryat Gat,0,IL,1595198269,67,31.61,34.76,79.0,1.1
455,Obo,100,CF,1595198270,97,5.4,26.49,66.79,3.18
456,Zvenigovo,20,RU,1595198271,100,55.97,48.02,62.6,6.71
457,Katsuura,75,JP,1595198272,100,35.13,140.3,80.01,1.12
458,Pelym,17,RU,1595198031,81,61.01,62.0,56.66,9.91
459,Ust-Tsilma,0,RU,1595198275,90,65.44,52.15,50.4,2.15
460,Tabuk,5,PH,1595198276,82,17.42,121.44,76.75,3.62
461,Dunedin,67,NZ,1595198277,72,-45.87,170.5,48.99,5.99
462,Awjilah,27,LY,1595198236,48,29.11,21.29,79.47,11.54
463,Matagami,75,CA,1595198279,74,49.75,-77.63,78.8,7.74
464,San Quintín,0,MX,1595198280,53,30.48,-115.95,77.77,19.62
465,Bereket,0,TM,1595198281,27,39.24,55.52,86.13,3.33
466,Puerto Escondido,40,MX,1595198260,62,15.85,-97.07,87.8,8.05
467,Orocué,40,CO,1595198283,76,4.79,-71.34,80.46,3.51
468,Sihorā,53,IN,1595198284,82,23.48,80.12,80.26,8.34
469,Tabatinga,40,BR,1595198286,78,-4.25,-69.94,82.4,3.36
470,Sergeevka,2,KZ,1595198287,70,53.88,67.42,68.88,4.81
471,Charters Towers,86,AU,1595198288,78,-20.1,146.27,62.96,4.99
472,Rawson,100,AR,1595198289,82,-43.3,-65.1,45.36,11.56
473,Almeirim,74,BR,1595198127,66,-1.52,-52.58,79.27,2.08
474,Pisco,20,PE,1595198167,77,-13.7,-76.22,64.4,18.34
475,Shingū,96,JP,1595198292,75,33.73,135.98,80.74,1.61
476,Saint-François,0,FR,1595198229,63,46.42,3.91,66.2,3.36
477,Pervomayskoye,0,RU,1595198295,67,43.92,46.71,75.78,7.27
478,Beringovskiy,58,RU,1595198030,78,63.05,179.32,45.14,15.57
479,Mérida,75,MX,1595198297,94,20.97,-89.62,79.0,11.41
480,Sharkan,80,RU,1595198298,91,57.3,53.87,64.0,1.01
481,Petrovskoye,100,RU,1595198299,94,57.01,39.27,58.93,5.64
482,Jalingo,55,NG,1595198300,90,8.88,11.37,74.46,4.85
483,La Cruz,18,MX,1595198301,62,23.92,-106.9,87.12,8.5
484,Tarauacá,73,BR,1595198302,67,-8.16,-70.77,79.7,1.74
485,Southbridge,44,US,1595198303,57,42.08,-72.03,90.0,3.0
486,Uray,36,RU,1595198305,78,60.12,64.78,61.2,11.86
487,Yar-Sale,0,RU,1595198306,82,66.83,70.83,48.18,8.66
488,Kuril'sk,77,RU,1595198307,90,45.23,147.88,58.19,2.33
489,Fairbanks,90,US,1595198097,60,64.84,-147.72,70.0,3.36
490,Borogontsy,70,RU,1595198309,70,62.67,131.17,75.81,6.64
491,Leninskoye,100,RU,1595198310,77,47.94,132.62,67.32,7.72
492,Boqueirão,7,BR,1595198311,93,-7.5,-36.13,67.78,8.41
493,Pangnirtung,100,CA,1595198312,52,66.15,-65.71,59.34,1.61
494,Chota,40,PE,1595198313,81,-6.55,-78.65,57.22,4.38
495,Moree,0,AU,1595198116,81,-29.47,149.85,44.6,10.36
496,Touros,40,BR,1595198315,88,-5.2,-35.46,77.0,4.7
497,Sijunjung,26,ID,1595198316,92,-0.69,100.95,70.83,0.56
498,Coruripe,18,BR,1595198175,85,-10.13,-36.18,73.9,12.75
499,Darova,20,RO,1595198318,93,45.64,21.77,61.0,3.36
500,Ifakara,73,TZ,1595198320,61,-8.13,36.68,68.18,1.59
501,Beloha,0,MG,1595198321,81,-25.17,45.05,60.84,10.09
502,Paita,5,PE,1595198256,81,-5.09,-81.11,63.28,17.18
503,Coffs Harbour,0,AU,1595198323,93,-30.3,153.13,55.99,4.7
504,Careiro da Várzea,20,BR,1595198324,66,-3.2,-59.81,87.8,4.7
505,Guane,100,CU,1595198325,85,22.2,-84.09,78.58,6.8
506,Lahaina,90,US,1595198267,55,20.88,-156.68,87.8,14.99
507,Komsomol'skoye,38,RU,1595198327,95,55.26,47.55,56.88,6.85
508,Mehamn,100,NO,1595198239,84,71.04,27.85,52.5,6.35
509,Savannah Bight,1,HN,1595198329,79,16.45,-85.85,83.82,17.45
510,Pierre,1,US,1595198102,39,44.37,-100.35,81.0,9.17
511,Kintampo,92,GH,1595198332,84,8.06,-1.73,73.72,5.03
512,Malbork,0,PL,1595198333,82,54.04,19.03,66.99,3.36
513,Artigas,40,UY,1595198334,87,-30.4,-56.47,67.87,9.13
514,Terrasini,0,IT,1595198335,65,38.15,13.08,78.8,9.17
515,Newport,0,GB,1595198336,69,51.59,-3.0,60.01,11.68
516,Ciudad Ayala,0,MX,1595198337,41,18.75,-98.98,91.0,3.56
517,Springbok,0,ZA,1595198338,38,-29.66,17.89,52.47,4.52
518,Ixtapa,40,MX,1595198339,74,20.7,-105.2,88.0,12.75
519,San Vicente,1,AR,1595198295,83,-26.62,-54.13,64.06,3.67
520,Safi,0,MA,1595198303,73,32.3,-9.24,72.88,7.02
521,Discovery Bay,1,US,1595198343,26,37.91,-121.6,93.99,23.04
522,Tamsweg,52,AT,1595198344,88,47.13,13.81,55.99,3.13
523,Ancud,20,CL,1595198193,100,-41.87,-73.82,50.0,6.93
524,Kenai,90,US,1595198163,77,60.55,-151.26,62.6,16.11
525,Kalmunai,92,LK,1595198347,79,7.42,81.82,80.37,5.39
526,Marathon,20,US,1595198348,47,44.9,-89.77,78.8,20.8
527,Bismarck,1,US,1595198349,47,46.81,-100.78,78.8,9.17
528,Tambura,99,SS,1595198350,97,5.6,27.47,66.87,2.33
529,Oranjemund,0,NA,1595198352,35,-28.55,16.43,62.58,4.88
530,Kalulushi,10,ZM,1595198353,77,-12.84,28.09,49.24,7.85
531,Nishihara,75,JP,1595198354,88,26.18,127.76,82.4,8.05
532,Severobaykal'sk,86,RU,1595198355,68,55.65,109.32,51.37,5.08
533,Korsholm,100,FI,1595198356,82,63.11,21.68,64.0,4.7
534,Butwāl,99,NP,1595198357,88,27.7,83.45,77.31,1.45
535,Fort Morgan,1,US,1595198109,17,40.25,-103.8,95.0,11.41
536,Claveria,0,PH,1595198359,75,18.61,121.08,82.24,8.72
537,Smithers,20,CA,1595198360,43,54.78,-127.17,73.4,4.7
538,Baghdad,0,IQ,1595198361,22,33.34,44.4,87.8,8.05
539,Bellūru,100,IN,1595198362,88,12.99,76.74,71.53,3.71
540,Kholtoson,9,RU,1595198364,84,50.3,103.31,47.25,0.13
541,Shelburne,90,CA,1595198365,74,44.08,-80.2,80.6,13.87
542,Marabba,98,SD,1595198366,79,12.35,32.18,75.2,11.88
543,Sur,63,OM,1595198110,75,22.57,59.53,85.75,12.73
544,Ginda,10,IN,1595198218,82,30.69,78.49,63.77,2.06
545,Szentlőrinckáta,54,HU,1595198369,93,47.52,19.75,60.8,3.58
546,Aklavik,75,CA,1595198370,66,68.22,-135.01,50.0,2.24
547,Atar,73,MR,1595198126,22,20.52,-13.05,98.26,9.84
548,Marystown,12,CA,1595198372,88,47.17,-55.15,59.56,13.02
549,Medford,1,US,1595198271,23,42.33,-122.88,98.01,5.82
550,Maragogi,52,BR,1595198374,87,-9.01,-35.22,74.37,12.12
551,Canto do Buriti,23,BR,1595198375,39,-8.11,-42.94,77.0,5.97
552,Ambovombe,0,MG,1595198377,75,-25.17,46.08,63.68,14.97
553,Bud,1,US,1595198311,94,39.45,-86.18,75.2,10.56
554,Thaba-Tseka,0,LS,1595198379,63,-29.52,28.61,34.83,2.21
555,Iwaki,86,JP,1595198380,94,37.05,140.88,73.0,1.99
556,Lompoc,6,US,1595198381,64,34.64,-120.46,71.01,16.11
557,Raudeberg,36,NO,1595198382,87,61.99,5.14,52.0,9.17
558,Haveli Lakha,28,PK,1595198383,57,30.45,73.7,90.41,10.22
559,Padilla,40,CO,1595198384,48,3.22,-76.31,87.8,11.41
560,Otradnoye,2,RU,1595198385,72,59.78,30.82,64.4,4.47
561,Waipawa,90,NZ,1595198284,60,-41.41,175.52,62.01,1.99
562,Sungai Penuh,72,ID,1595198388,94,-2.08,101.38,64.45,3.62
563,Alcúdia,0,ES,1595198163,73,39.85,3.12,73.4,3.36
564,Nelson Bay,10,AU,1595198261,66,-32.72,152.15,54.0,17.22
565,Klyuchi,8,RU,1595198391,88,52.27,79.17,62.94,5.39
566,Morón,80,AR,1595198253,82,-34.65,-58.62,68.0,2.24
567,Gusau,0,NG,1595198393,77,12.16,6.66,75.92,10.42
568,Srednekolymsk,0,RU,1595198394,40,67.45,153.68,74.17,12.24
